{"businesses": [{"id": "0E-VYhreGPhBrugmXewyaw", "alias": "zeppelin-washington", "name": "Zeppelin", "image_url": "https://s3-media2.fl.yelpcdn.com/bphoto/FoHcaaKs0Pp0Qp-pOT5piw/o.jpg", "is_closed": false, "url": "https://www.yelp.com/biz/zeppelin-washington?adjust_creative=su_I7EgiWUkgGtErzncvtg&utm_campaign=yelp_api_v3&utm_medium=api_v3_business_search&utm_source=su_I7EgiWUkgGtErzncvtg", "review_count": 212, "categories": [{"alias": "sushi", "title": "Sushi Bars"}, {"alias": "cocktailbars", "title": "Cocktail Bars"}, {"alias": "karaoke", "title": "Karaoke"}], "rating": 4.0, "coordinates": {"latitude": 38.91095, "longitude": -77.02424}, "transactions": ["pickup", "delivery"], "price": "$$", "location": {"address1": "1544 9th St NW", "address2": "", "address3": null, "city": "Washington, DC", "zip_code": "20001", "country": "US", "state": "DC", "display_address": ["1544 9th St NW", "Washington, DC 20001"]}, "phone": "+12025061068", "display_phone": "(202) 506-1068", "distance": 555.0333824383297}, {"id": "77OxJfmG2xI-0O_ekvKY1A", "alias": "wok-and-roll-washington-8", "name": "Wok and Roll", "image_url": "https://s3-media1.fl.yelpcdn.com/bphoto/53o9DWKLmD1FJBDWlF58Rg/o.jpg", "is_closed": false, "url": "https://www.yelp.com/biz/wok-and-roll-washington-8?adjust_creative=su_I7EgiWUkgGtErzncvtg&utm_campaign=yelp_api_v3&utm_medium=api_v3_business_search&utm_source=su_I7EgiWUkgGtErzncvtg", "review_count": 694, "categories": [{"alias": "karaoke", "title": "Karaoke"}, {"alias": "lounges", "title": "Lounges"}, {"alias": "sushi", "title": "Sushi Bars"}], "rating": 2.5, "coordinates": {"latitude": 38.89955, "longitude": -77.020392}, "transactions": ["pickup", "delivery"], "price": "$$", "location": {"address1": "604 H St NW", "address2": null, "address3": "", "city": "Washington, DC", "zip_code": "20001", "country": "US", "state": "DC", "display_address": ["604 H St NW", "Washington, DC 20001"]}, "phone": "+12023474656", "display_phone": "(202) 347-4656", "distance": 1578.4375859869554}, {"id": "I67xVaFVUjqQSE4FwgXFow", "alias": "freddies-beach-bar-and-restaurant-arlington", "name": "Freddie's Beach Bar & Restaurant", "image_url": "https://s3-media2.fl.yelpcdn.com/bphoto/MK9wRdfQyLwR7t5sWG1Lkg/o.jpg", "is_closed": false, "url": "https://www.yelp.com/biz/freddies-beach-bar-and-restaurant-arlington?adjust_creative=su_I7EgiWUkgGtErzncvtg&utm_campaign=yelp_api_v3&utm_medium=api_v3_business_search&utm_source=su_I7EgiWUkgGtErzncvtg", "review_count": 440, "categories": [{"alias": "gaybars", "title": "Gay Bars"}, {"alias": "karaoke", "title": "Karaoke"}, {"alias": "breakfast_brunch", "title": "Breakfast & Brunch"}], "rating": 4.0, "coordinates": {"latitude": 38.853561, "longitude": -77.054933}, "transactions": ["restaurant_reservation", "pickup", "delivery"], "price": "$$", "location": {"address1": "555 23rd St S", "address2": "", "address3": "", "city": "Arlington", "zip_code": "22202", "country": "US", "state": "VA", "display_address": ["555 23rd St S", "Arlington, VA 22202"]}, "phone": "+17036850555", "display_phone": "(703) 685-0555", "distance": 6755.181526873061}, {"id": "t1Y6dtzifSaGfT2vZuAPJg", "alias": "muzette-karaoke-and-restaurant-washington", "name": "Muzette Karaoke & Restaurant", "image_url": "https://s3-media2.fl.yelpcdn.com/bphoto/M390ax02EhALIHgxVRbK2w/o.jpg", "is_closed": false, "url": "https://www.yelp.com/biz/muzette-karaoke-and-restaurant-washington?adjust_creative=su_I7EgiWUkgGtErzncvtg&utm_campaign=yelp_api_v3&utm_medium=api_v3_business_search&utm_source=su_I7EgiWUkgGtErzncvtg", "review_count": 165, "categories": [{"alias": "karaoke", "title": "Karaoke"}, {"alias": "korean", "title": "Korean"}], "rating": 3.0, "coordinates": {"latitude": 38.9198499, "longitude": -77.04143}, "transactions": ["pickup", "delivery"], "price": "$$", "location": {"address1": "2305 18th St NW", "address2": "", "address3": "Basement", "city": "Washington, DC", "zip_code": "20009", "country": "US", "state": "DC", "display_address": ["2305 18th St NW", "Basement", "Washington, DC 20009"]}, "phone": "+12027582971", "display_phone": "(202) 758-2971", "distance": 1329.0884253658965}, {"id": "jDew3sFtBK3ej3vw2_lGGA", "alias": "kostume-karaoke-washington", "name": "Kostume Karaoke", "image_url": "https://s3-media2.fl.yelpcdn.com/bphoto/bse80v3sWFKd4BNPsCeD2A/o.jpg", "is_closed": false, "url": "https://www.yelp.com/biz/kostume-karaoke-washington?adjust_creative=su_I7EgiWUkgGtErzncvtg&utm_campaign=yelp_api_v3&utm_medium=api_v3_business_search&utm_source=su_I7EgiWUkgGtErzncvtg", "review_count": 17, "categories": [{"alias": "karaoke", "title": "Karaoke"}], "rating": 4.5, "coordinates": {"latitude": 38.9166509, "longitude": -77.0270258}, "transactions": [], "price": "$", "location": {"address1": "1942 11th St NW", "address2": "", "address3": "", "city": "Washington, DC", "zip_code": "20001", "country": "US", "state": "DC", "display_address": ["1942 11th St NW", "Washington, DC 20001"]}, "phone": "+12022326590", "display_phone": "(202) 232-6590", "distance": 672.7766059268467}, {"id": "Xaitf5qqohV7QZLqLMMUSA", "alias": "shooters-sports-bar-springfield", "name": "Shooters Sports Bar", "image_url": "https://s3-media3.fl.yelpcdn.com/bphoto/vPHv05bL1boUCUHOOVNkDw/o.jpg", "is_closed": false, "url": "https://www.yelp.com/biz/shooters-sports-bar-springfield?adjust_creative=su_I7EgiWUkgGtErzncvtg&utm_campaign=yelp_api_v3&utm_medium=api_v3_business_search&utm_source=su_I7EgiWUkgGtErzncvtg", "review_count": 100, "categories": [{"alias": "sportsbars", "title": "Sports Bars"}, {"alias": "seafood", "title": "Seafood"}, {"alias": "karaoke", "title": "Karaoke"}], "rating": 4.5, "coordinates": {"latitude": 38.7728509, "longitude": -77.1847845}, "transactions": [], "price": "$$", "location": {"address1": "7052 Spring Garden Dr", "address2": "", "address3": "", "city": "Springfield", "zip_code": "22150", "country": "US", "state": "VA", "display_address": ["7052 Spring Garden Dr", "Springfield, VA 22150"]}, "phone": "+17039426130", "display_phone": "(703) 942-6130", "distance": 20376.504004567232}, {"id": "-ZVeyeJEL0jHiUO_-u8CAw", "alias": "rock-it-grill-alexandria", "name": "Rock It Grill", "image_url": "https://s3-media3.fl.yelpcdn.com/bphoto/NVYKRDrs5HkB2hZLvH0I5g/o.jpg", "is_closed": false, "url": "https://www.yelp.com/biz/rock-it-grill-alexandria?adjust_creative=su_I7EgiWUkgGtErzncvtg&utm_campaign=yelp_api_v3&utm_medium=api_v3_business_search&utm_source=su_I7EgiWUkgGtErzncvtg", "review_count": 291, "categories": [{"alias": "karaoke", "title": "Karaoke"}, {"alias": "bars", "title": "Bars"}, {"alias": "newamerican", "title": "American (New)"}], "rating": 3.0, "coordinates": {"latitude": 38.8062629699707, "longitude": -77.054313659668}, "transactions": ["pickup", "delivery"], "price": "$$", "location": {"address1": "1319 King St", "address2": "", "address3": "", "city": "Alexandria", "zip_code": "22314", "country": "US", "state": "VA", "display_address": ["1319 King St", "Alexandria, VA 22314"]}, "phone": "+17037392274", "display_phone": "(703) 739-2274", "distance": 11863.53730008976}, {"id": "f13HXS7iGr-0oOKXEP63LQ", "alias": "dain-cafe-and-karaoke-annandale", "name": "Dain Cafe & Karaoke", "image_url": "https://s3-media2.fl.yelpcdn.com/bphoto/K59Ghun6Uiv823CShFpjcg/o.jpg", "is_closed": false, "url": "https://www.yelp.com/biz/dain-cafe-and-karaoke-annandale?adjust_creative=su_I7EgiWUkgGtErzncvtg&utm_campaign=yelp_api_v3&utm_medium=api_v3_business_search&utm_source=su_I7EgiWUkgGtErzncvtg", "review_count": 108, "categories": [{"alias": "karaoke", "title": "Karaoke"}, {"alias": "cafes", "title": "Cafes"}], "rating": 4.0, "coordinates": {"latitude": 38.83163, "longitude": -77.19415}, "transactions": ["delivery"], "price": "$$", "location": {"address1": "7220-B Columbia Pike", "address2": "", "address3": "", "city": "Annandale", "zip_code": "22003", "country": "US", "state": "VA", "display_address": ["7220-B Columbia Pike", "Annandale, VA 22003"]}, "phone": "+17036638260", "display_phone": "(703) 663-8260", "distance": 16703.42683640759}, {"id": "gm73Gc16Dws4WCdSeuM5xQ", "alias": "el-gavilan-restaurant-silver-spring", "name": "El Gavilan Restaurant", "image_url": "https://s3-media2.fl.yelpcdn.com/bphoto/TOnzCk6Z7fIPys92Yv3hMg/o.jpg", "is_closed": false, "url": "https://www.yelp.com/biz/el-gavilan-restaurant-silver-spring?adjust_creative=su_I7EgiWUkgGtErzncvtg&utm_campaign=yelp_api_v3&utm_medium=api_v3_business_search&utm_source=su_I7EgiWUkgGtErzncvtg", "review_count": 61, "categories": [{"alias": "latin", "title": "Latin American"}, {"alias": "tex-mex", "title": "Tex-Mex"}, {"alias": "karaoke", "title": "Karaoke"}], "rating": 3.5, "coordinates": {"latitude": 38.99994, "longitude": -77.00367}, "transactions": ["pickup", "delivery"], "price": "$$", "location": {"address1": "8805 Flower Ave", "address2": "", "address3": "", "city": "Silver Spring", "zip_code": "20901", "country": "US", "state": "MD", "display_address": ["8805 Flower Ave", "Silver Spring, MD 20901"]}, "phone": "+13015874197", "display_phone": "(301) 587-4197", "distance": 10132.923448826637}, {"id": "UN3UpqJoYNvSd9MY97V0_w", "alias": "my-canton-restaurant-washington", "name": "My Canton Restaurant", "image_url": "https://s3-media4.fl.yelpcdn.com/bphoto/IoaNWV8NbotzqloqA008Yw/o.jpg", "is_closed": false, "url": "https://www.yelp.com/biz/my-canton-restaurant-washington?adjust_creative=su_I7EgiWUkgGtErzncvtg&utm_campaign=yelp_api_v3&utm_medium=api_v3_business_search&utm_source=su_I7EgiWUkgGtErzncvtg", "review_count": 7, "categories": [{"alias": "mexican", "title": "Mexican"}, {"alias": "salvadoran", "title": "Salvadoran"}, {"alias": "karaoke", "title": "Karaoke"}], "rating": 3.5, "coordinates": {"latitude": 38.9234179, "longitude": -77.041142}, "transactions": ["pickup", "delivery"], "location": {"address1": "1772 Columbia Rd NW", "address2": "", "address3": "", "city": "Washington, DC", "zip_code": "20009", "country": "US", "state": "DC", "display_address": ["1772 Columbia Rd NW", "Washington, DC 20009"]}, "phone": "+12027977555", "display_phone": "(202) 797-7555", "distance": 1625.7685439556137}, {"id": "vRg9QAxXgMaB3Q-55_DFBQ", "alias": "alley-cat-alexandria", "name": "Alley Cat", "image_url": "https://s3-media4.fl.yelpcdn.com/bphoto/hnT2hk_IDg4lsOCqeEZpwQ/o.jpg", "is_closed": false, "url": "https://www.yelp.com/biz/alley-cat-alexandria?adjust_creative=su_I7EgiWUkgGtErzncvtg&utm_campaign=yelp_api_v3&utm_medium=api_v3_business_search&utm_source=su_I7EgiWUkgGtErzncvtg", "review_count": 121, "categories": [{"alias": "karaoke", "title": "Karaoke"}, {"alias": "sportsbars", "title": "Sports Bars"}, {"alias": "tradamerican", "title": "American (Traditional)"}], "rating": 3.5, "coordinates": {"latitude": 38.8139169, "longitude": -77.13617}, "transactions": ["pickup", "delivery"], "price": "$$", "location": {"address1": "2 S Whiting St", "address2": "", "address3": "", "city": "Alexandria", "zip_code": "22304", "country": "US", "state": "VA", "display_address": ["2 S Whiting St", "Alexandria, VA 22304"]}, "phone": "+17034610450", "display_phone": "(703) 461-0450", "distance": 14167.792161851403}, {"id": "AybwzrTkwapX_tZRvYrvvA", "alias": "td-karaoke-falls-church", "name": "TD Karaoke", "image_url": "https://s3-media4.fl.yelpcdn.com/bphoto/B7f1T_xHbS0fUC0o_lsvcw/o.jpg", "is_closed": false, "url": "https://www.yelp.com/biz/td-karaoke-falls-church?adjust_creative=su_I7EgiWUkgGtErzncvtg&utm_campaign=yelp_api_v3&utm_medium=api_v3_business_search&utm_source=su_I7EgiWUkgGtErzncvtg", "review_count": 70, "categories": [{"alias": "karaoke", "title": "Karaoke"}, {"alias": "asianfusion", "title": "Asian Fusion"}], "rating": 3.5, "coordinates": {"latitude": 38.8698003702116, "longitude": -77.2291909914017}, "transactions": ["pickup", "delivery"], "price": "$$", "location": {"address1": "2980 Gallows Rd", "address2": null, "address3": "", "city": "Falls Church", "zip_code": "22042", "country": "US", "state": "VA", "display_address": ["2980 Gallows Rd", "Falls Church, VA 22042"]}, "phone": "+17039428998", "display_phone": "(703) 942-8998", "distance": 17792.849790098262}, {"id": "JpgHY7prCeP7A_ZnoHs7cg", "alias": "kpop-karaoke-annandale", "name": "Kpop karaoke", "image_url": "https://s3-media4.fl.yelpcdn.com/bphoto/35UG_j98ZO5lFCX55RXFew/o.jpg", "is_closed": false, "url": "https://www.yelp.com/biz/kpop-karaoke-annandale?adjust_creative=su_I7EgiWUkgGtErzncvtg&utm_campaign=yelp_api_v3&utm_medium=api_v3_business_search&utm_source=su_I7EgiWUkgGtErzncvtg", "review_count": 37, "categories": [{"alias": "karaoke", "title": "Karaoke"}], "rating": 4.0, "coordinates": {"latitude": 38.832562, "longitude": -77.190845}, "transactions": [], "location": {"address1": "7110 Columbia Pike", "address2": null, "address3": "", "city": "Annandale", "zip_code": "22003", "country": "US", "state": "VA", "display_address": ["7110 Columbia Pike", "Annandale, VA 22003"]}, "phone": "+17039928100", "display_phone": "(703) 992-8100", "distance": 16401.034328603095}, {"id": "oGRY0V73G_aD_9t0Wp6Ddg", "alias": "baden-baden-annandale", "name": "Baden Baden", "image_url": "https://s3-media2.fl.yelpcdn.com/bphoto/3E_Qn6z7d91ZsfZoHGxBeQ/o.jpg", "is_closed": false, "url": "https://www.yelp.com/biz/baden-baden-annandale?adjust_creative=su_I7EgiWUkgGtErzncvtg&utm_campaign=yelp_api_v3&utm_medium=api_v3_business_search&utm_source=su_I7EgiWUkgGtErzncvtg", "review_count": 33, "categories": [{"alias": "korean", "title": "Korean"}, {"alias": "bars", "title": "Bars"}, {"alias": "karaoke", "title": "Karaoke"}], "rating": 4.0, "coordinates": {"latitude": 38.8321501185006, "longitude": -77.199685536325}, "transactions": ["pickup", "delivery"], "price": "$$", "location": {"address1": "7358 Little River Tpke", "address2": "", "address3": "", "city": "Annandale", "zip_code": "22003", "country": "US", "state": "VA", "display_address": ["7358 Little River Tpke", "Annandale, VA 22003"]}, "phone": "+17032566777", "display_phone": "(703) 256-6777", "distance": 17076.704085170542}, {"id": "tW52AED-JqStdTmWeqKUPg", "alias": "cafe-tu-ah-annandale-4", "name": "Cafe Tu Ah", "image_url": "https://s3-media2.fl.yelpcdn.com/bphoto/C5uiUDD8fEDWYJg9MU1rJA/o.jpg", "is_closed": false, "url": "https://www.yelp.com/biz/cafe-tu-ah-annandale-4?adjust_creative=su_I7EgiWUkgGtErzncvtg&utm_campaign=yelp_api_v3&utm_medium=api_v3_business_search&utm_source=su_I7EgiWUkgGtErzncvtg", "review_count": 56, "categories": [{"alias": "korean", "title": "Korean"}, {"alias": "karaoke", "title": "Karaoke"}, {"alias": "bars", "title": "Bars"}], "rating": 3.5, "coordinates": {"latitude": 38.83209, "longitude": -77.19051}, "transactions": ["delivery"], "price": "$$", "location": {"address1": "7117 Columbia Pike", "address2": "", "address3": null, "city": "Annandale", "zip_code": "22003", "country": "US", "state": "VA", "display_address": ["7117 Columbia Pike", "Annandale, VA 22003"]}, "phone": "+17039928671", "display_phone": "(703) 992-8671", "distance": 16404.852826997918}, {"id": "K667JDL8fVE4EKfkbzlhww", "alias": "cafe-chocolate-annandale", "name": "Cafe Chocolate", "image_url": "https://s3-media2.fl.yelpcdn.com/bphoto/BglPtuVXZXwEQQDxRGPy0A/o.jpg", "is_closed": false, "url": "https://www.yelp.com/biz/cafe-chocolate-annandale?adjust_creative=su_I7EgiWUkgGtErzncvtg&utm_campaign=yelp_api_v3&utm_medium=api_v3_business_search&utm_source=su_I7EgiWUkgGtErzncvtg", "review_count": 35, "categories": [{"alias": "korean", "title": "Korean"}, {"alias": "karaoke", "title": "Karaoke"}, {"alias": "lounges", "title": "Lounges"}], "rating": 3.5, "coordinates": {"latitude": 38.82884, "longitude": -77.19149}, "transactions": ["delivery"], "price": "$$", "location": {"address1": "7129 Little River Tpke", "address2": null, "address3": "", "city": "Annandale", "zip_code": "22003", "country": "US", "state": "VA", "display_address": ["7129 Little River Tpke", "Annandale, VA 22003"]}, "phone": "+17033540054", "display_phone": "(703) 354-0054", "distance": 16702.865452199512}, {"id": "0W2DctnL1nb8fxTPFrZG5A", "alias": "district-karaoke-washington-2", "name": "District Karaoke", "image_url": "https://s3-media3.fl.yelpcdn.com/bphoto/EH2_mxISiOyxZJaFGlZkqg/o.jpg", "is_closed": false, "url": "https://www.yelp.com/biz/district-karaoke-washington-2?adjust_creative=su_I7EgiWUkgGtErzncvtg&utm_campaign=yelp_api_v3&utm_medium=api_v3_business_search&utm_source=su_I7EgiWUkgGtErzncvtg", "review_count": 4, "categories": [{"alias": "social_clubs", "title": "Social Clubs"}, {"alias": "karaoke", "title": "Karaoke"}], "rating": 3.0, "coordinates": {"latitude": 38.9191485, "longitude": -77.0362967}, "transactions": [], "price": "$$", "location": {"address1": "", "address2": "", "address3": "", "city": "Washington, DC", "zip_code": "20009", "country": "US", "state": "DC", "display_address": ["Washington, DC 20009"]}, "phone": "+12026302185", "display_phone": "(202) 630-2185", "distance": 1001.2109649660644}, {"id": "nPYrHVzjjwBBnVPvvK3NLw", "alias": "el-patron-bar-and-grill-falls-church", "name": "El Patron Bar & Grill", "image_url": "https://s3-media2.fl.yelpcdn.com/bphoto/JWfVDMNoFe-SkBTlkmWfUA/o.jpg", "is_closed": false, "url": "https://www.yelp.com/biz/el-patron-bar-and-grill-falls-church?adjust_creative=su_I7EgiWUkgGtErzncvtg&utm_campaign=yelp_api_v3&utm_medium=api_v3_business_search&utm_source=su_I7EgiWUkgGtErzncvtg", "review_count": 32, "categories": [{"alias": "tex-mex", "title": "Tex-Mex"}, {"alias": "salvadoran", "title": "Salvadoran"}, {"alias": "karaoke", "title": "Karaoke"}], "rating": 3.5, "coordinates": {"latitude": 38.88013, "longitude": -77.17541}, "transactions": ["delivery"], "location": {"address1": "418 S Washington St", "address2": null, "address3": "", "city": "Falls Church", "zip_code": "22046", "country": "US", "state": "VA", "display_address": ["418 S Washington St", "Falls Church, VA 22046"]}, "phone": "+17035382466", "display_phone": "(703) 538-2466", "distance": 13005.562440621648}, {"id": "1f2dCamij1DGvfXZ12hYCg", "alias": "x-treme-wings-and-bar-mclean", "name": "X-Treme Wings and Bar", "image_url": "https://s3-media4.fl.yelpcdn.com/bphoto/kSbE4gZXvss5iR3vvHgGtw/o.jpg", "is_closed": false, "url": "https://www.yelp.com/biz/x-treme-wings-and-bar-mclean?adjust_creative=su_I7EgiWUkgGtErzncvtg&utm_campaign=yelp_api_v3&utm_medium=api_v3_business_search&utm_source=su_I7EgiWUkgGtErzncvtg", "review_count": 77, "categories": [{"alias": "sportsbars", "title": "Sports Bars"}, {"alias": "chicken_wings", "title": "Chicken Wings"}, {"alias": "karaoke", "title": "Karaoke"}], "rating": 2.5, "coordinates": {"latitude": 38.91717, "longitude": -77.22732}, "transactions": ["pickup", "delivery"], "price": "$$", "location": {"address1": "8119 Watson St", "address2": null, "address3": "", "city": "McLean", "zip_code": "22102", "country": "US", "state": "VA", "display_address": ["8119 Watson St", "McLean, VA 22102"]}, "phone": "+17038472442", "display_phone": "(703) 847-2442", "distance": 17030.5540541155}, {"id": "uMxjS7lf0UO1rEY-cZtaQw", "alias": "taco-baja-falls-church-3", "name": "Taco Baja", "image_url": "https://s3-media2.fl.yelpcdn.com/bphoto/PINrSXrjmqNDFwp4IPi4dA/o.jpg", "is_closed": false, "url": "https://www.yelp.com/biz/taco-baja-falls-church-3?adjust_creative=su_I7EgiWUkgGtErzncvtg&utm_campaign=yelp_api_v3&utm_medium=api_v3_business_search&utm_source=su_I7EgiWUkgGtErzncvtg", "review_count": 31, "categories": [{"alias": "mexican", "title": "Mexican"}, {"alias": "bars", "title": "Bars"}, {"alias": "karaoke", "title": "Karaoke"}], "rating": 2.5, "coordinates": {"latitude": 38.87532, "longitude": -77.21122}, "transactions": ["pickup", "delivery"], "price": "$", "location": {"address1": "7716 Lee Hwy", "address2": null, "address3": null, "city": "Falls Church", "zip_code": "22042", "country": "US", "state": "VA", "display_address": ["7716 Lee Hwy", "Falls Church, VA 22042"]}, "phone": "+17032050010", "display_phone": "(703) 205-0010", "distance": 16117.463440949072}], "total": 26, "region": {"center": {"longitude": -77.0306396484375, "latitude": 38.911293573163775}}}